[{"id":896,"name":"Travel Bureuo","address":"2401 18th Main K S Lyt","contact_no":"9739562236","city_id":1,"category_id":34,"lat":12.901407,"lng":77.560528,"start_time":"10:00:00","end_time":"20:00:00","paytm_id":293893,"created_at":"2016-12-18 11:56:22","updated_at":"2016-12-18 11:56:22"},{"id":899,"name":"Fish Fantasy","address":"2418\/1 Isro Layout Mn Road K S Lyt","contact_no":"9738850990","city_id":1,"category_id":8,"lat":12.901463,"lng":77.560632,"start_time":"10:00:00","end_time":"20:00:00","paytm_id":291069,"created_at":"2016-12-18 11:56:22","updated_at":"2016-12-18 11:56:22"},{"id":912,"name":"Sri Nanjundeshwara Bike Point","address":"Kumaraswamy Layout","contact_no":"9738532668","city_id":1,"category_id":17,"lat":12.901899,"lng":77.561013,"start_time":"10:00:00","end_time":"20:00:00","paytm_id":294497,"created_at":"2016-12-18 11:56:22","updated_at":"2016-12-18 11:56:22"},{"id":914,"name":"Lakshmi Ganeshwara Stationery","address":"965 47th Croas K S Lyt","contact_no":"9535079630","city_id":1,"category_id":14,"lat":12.906803,"lng":77.560867,"start_time":"10:00:00","end_time":"20:00:00","paytm_id":288873,"created_at":"2016-12-18 11:56:22","updated_at":"2016-12-18 11:56:22"},{"id":917,"name":"Anujna Ayurdhama","address":" 79\/3 Isro Layout Main Road Opposite Bank Of Boroda","contact_no":"9448231270","city_id":1,"category_id":2,"lat":12.896936,"lng":77.561248,"start_time":"10:00:00","end_time":"20:00:00","paytm_id":298185,"created_at":"2016-12-18 11:56:22","updated_at":"2016-12-18 11:56:22"},{"id":924,"name":"Raj Bath Gallery","address":" 28,  Vasanthapura Main Road,  Konanakunte Cross","contact_no":"9738526313","city_id":1,"category_id":45,"lat":12.891665,"lng":77.561038,"start_time":"10:00:00","end_time":"20:00:00","paytm_id":295525,"created_at":"2016-12-18 11:56:22","updated_at":"2016-12-18 11:56:22"},{"id":933,"name":"Suresh Condiments","address":" 131\/6,  Vasanthapura Main Road,  Konanakunte Cross","contact_no":"8951204599","city_id":1,"category_id":12,"lat":12.891306,"lng":77.561272,"start_time":"10:00:00","end_time":"20:00:00","paytm_id":287941,"created_at":"2016-12-18 11:56:22","updated_at":"2016-12-18 11:56:22"},{"id":934,"name":"Padma Shree Provision Stores","address":"Vasanthapura Main Road","contact_no":"8892666036","city_id":1,"category_id":9,"lat":12.89199,"lng":77.561405,"start_time":"10:00:00","end_time":"20:00:00","paytm_id":294717,"created_at":"2016-12-18 11:56:22","updated_at":"2016-12-18 11:56:22"},{"id":937,"name":"Sri Lakshmi Narasimha Condiments And Bekari","address":"Subramannyapura 1st Main Road Chikkagowdanapallya","contact_no":"7676577371","city_id":1,"category_id":44,"lat":12.908347,"lng":77.561425,"start_time":"10:00:00","end_time":"20:00:00","paytm_id":292501,"created_at":"2016-12-18 11:56:22","updated_at":"2016-12-18 11:56:22"},{"id":939,"name":"Kalikambha Jewellery Works","address":" 20,  4th Cross,  Konanakunte","contact_no":"9964497369","city_id":1,"category_id":40,"lat":12.891048,"lng":77.561383,"start_time":"10:00:00","end_time":"20:00:00","paytm_id":291553,"created_at":"2016-12-18 11:56:22","updated_at":"2016-12-18 11:56:22"},{"id":941,"name":"Fazila'S Bakery","address":" 140,  2nd Cross,  Konanakunte","contact_no":"8971816088","city_id":1,"category_id":44,"lat":12.890941,"lng":77.561374,"start_time":"10:00:00","end_time":"20:00:00","paytm_id":299981,"created_at":"2016-12-18 11:56:22","updated_at":"2016-12-18 11:56:22"},{"id":943,"name":"Sri Vinayaka Fashions","address":"Vasanthapura Main Road,  Konanakunte Cross","contact_no":"7204246988","city_id":1,"category_id":18,"lat":12.891098,"lng":77.561442,"start_time":"10:00:00","end_time":"20:00:00","paytm_id":288685,"created_at":"2016-12-18 11:56:22","updated_at":"2016-12-18 11:56:22"},{"id":944,"name":"Shop Mart","address":" 11\/6,  Konanakunte Cross","contact_no":"9844418266","city_id":1,"category_id":9,"lat":12.890961,"lng":77.561432,"start_time":"10:00:00","end_time":"20:00:00","paytm_id":287953,"created_at":"2016-12-18 11:56:22","updated_at":"2016-12-18 11:56:22"},{"id":947,"name":"Skanda Enterprise","address":"Vasanthapura Main Road,  Konanakunte Cross","contact_no":"7019087130","city_id":1,"category_id":9,"lat":12.8911,"lng":77.561467,"start_time":"10:00:00","end_time":"20:00:00","paytm_id":294665,"created_at":"2016-12-18 11:56:22","updated_at":"2016-12-18 11:56:22"},{"id":948,"name":"Meenakshi Opticals","address":" 642,  Vasanthapura Main Road,  Konanakunte Cross","contact_no":"9900280373","city_id":1,"category_id":48,"lat":12.891133,"lng":77.561473,"start_time":"10:00:00","end_time":"20:00:00","paytm_id":288765,"created_at":"2016-12-18 11:56:22","updated_at":"2016-12-18 11:56:22"},{"id":949,"name":"Belz Play Home And Day Care","address":" 28\/1,  1st Floor,  Vasanthapura Main Road,  Konanakunte Cross","contact_no":"9886209331","city_id":1,"category_id":60,"lat":12.891101,"lng":77.561469,"start_time":"10:00:00","end_time":"20:00:00","paytm_id":299561,"created_at":"2016-12-18 11:56:22","updated_at":"2016-12-18 11:56:22"},{"id":950,"name":"Car N Fashion","address":"  8 23rd  Vishnuvardhan Road Bus 2nd Stage Kadirenahally","contact_no":"9916141511","city_id":1,"category_id":8,"lat":12.914399,"lng":77.560418,"start_time":"10:00:00","end_time":"20:00:00","paytm_id":297353,"created_at":"2016-12-18 11:56:22","updated_at":"2016-12-18 11:56:22"},{"id":951,"name":"Mahalakshmi Textiles","address":"Next To Mansa Theatre Kounkankuntte Cross","contact_no":"7330201351","city_id":1,"category_id":18,"lat":12.891153,"lng":77.561477,"start_time":"10:00:00","end_time":"20:00:00","paytm_id":299733,"created_at":"2016-12-18 11:56:22","updated_at":"2016-12-18 11:56:22"},{"id":953,"name":"Arihanth Electricals","address":"Konanakuntr Cross","contact_no":"9902482719","city_id":1,"category_id":19,"lat":12.891241,"lng":77.561498,"start_time":"10:00:00","end_time":"20:00:00","paytm_id":292609,"created_at":"2016-12-18 11:56:22","updated_at":"2016-12-18 11:56:22"},{"id":954,"name":"Padmashree Provision Store","address":" 29,  Vasanthapura Main Road,  Konanakunte Cross","contact_no":"9535832889","city_id":1,"category_id":13,"lat":12.89118,"lng":77.561514,"start_time":"10:00:00","end_time":"20:00:00","paytm_id":295241,"created_at":"2016-12-18 11:56:22","updated_at":"2016-12-18 11:56:22"},{"id":956,"name":"Mathaji Fancy & Gift Store","address":"Vasanthapura Main Road","contact_no":"9916939664","city_id":1,"category_id":25,"lat":12.89114,"lng":77.561658,"start_time":"10:00:00","end_time":"20:00:00","paytm_id":299269,"created_at":"2016-12-18 11:56:22","updated_at":"2016-12-18 11:56:22"},{"id":958,"name":"Raj Bath Gallery","address":"Vasanthapura Main Road","contact_no":"9206019540","city_id":1,"category_id":45,"lat":12.891111,"lng":77.561727,"start_time":"10:00:00","end_time":"20:00:00","paytm_id":296597,"created_at":"2016-12-18 11:56:22","updated_at":"2016-12-18 11:56:22"},{"id":959,"name":"S A Bikerz","address":" 24 Subash Chandrabose Road Bendra Nagar K S Layout Extension Bsk 2nd Stage","contact_no":"9591029366","city_id":1,"category_id":26,"lat":12.913556,"lng":77.560904,"start_time":"10:00:00","end_time":"20:00:00","paytm_id":288937,"created_at":"2016-12-18 11:56:22","updated_at":"2016-12-18 11:56:22"},{"id":960,"name":"Usha Provision Store","address":"Naidu Layout,  Konanakunte Cross,  Vasanthapura Main Road","contact_no":"9611177998","city_id":1,"category_id":13,"lat":12.891123,"lng":77.561827,"start_time":"10:00:00","end_time":"20:00:00","paytm_id":291777,"created_at":"2016-12-18 11:56:22","updated_at":"2016-12-18 11:56:22"},{"id":970,"name":"Royal Fork Hotel","address":"Subramanyapura Main Road Bsk 2nd Stage","contact_no":"9902758898","city_id":1,"category_id":11,"lat":12.914847,"lng":77.560751,"start_time":"10:00:00","end_time":"20:00:00","paytm_id":279557,"created_at":"2016-12-18 11:56:22","updated_at":"2016-12-18 11:56:22"},{"id":973,"name":"Good Service","address":" 16, Subash Chandra Bose Road, Bendre Nagar, Bsk 2nd Stage","contact_no":"8904416507","city_id":1,"category_id":19,"lat":12.913524,"lng":77.561066,"start_time":"10:00:00","end_time":"20:00:00","paytm_id":301709,"created_at":"2016-12-18 11:56:22","updated_at":"2016-12-18 11:56:22"},{"id":974,"name":"Sa Baikerz","address":" 24,  Subash Chandra Bose Road,  Bendra Nagar","contact_no":"9341553484","city_id":1,"category_id":17,"lat":12.913517,"lng":77.561115,"start_time":"10:00:00","end_time":"20:00:00","paytm_id":292569,"created_at":"2016-12-18 11:56:22","updated_at":"2016-12-18 11:56:22"},{"id":979,"name":"Sri Ranganatha Enterprises","address":" 21, Subash Chandra Bose Road, Bendre Nagar","contact_no":"9844777477","city_id":1,"category_id":4,"lat":12.913511,"lng":77.561198,"start_time":"10:00:00","end_time":"20:00:00","paytm_id":293545,"created_at":"2016-12-18 11:56:23","updated_at":"2016-12-18 11:56:23"},{"id":980,"name":"Lakshmi Devi Juices & Condiments","address":"  156 8th Main Road Jpnagar","contact_no":"9880478841","city_id":1,"category_id":8,"lat":12.9149,"lng":77.560888,"start_time":"10:00:00","end_time":"20:00:00","paytm_id":283877,"created_at":"2016-12-18 11:56:23","updated_at":"2016-12-18 11:56:23"},{"id":983,"name":"Good Service","address":" 16,  Subash Chandra Bose,  Bsk 2nd Stage","contact_no":"8722235374","city_id":1,"category_id":19,"lat":12.913463,"lng":77.561256,"start_time":"10:00:00","end_time":"20:00:00","paytm_id":294505,"created_at":"2016-12-18 11:56:23","updated_at":"2016-12-18 11:56:23"},{"id":988,"name":"Sri Vasavamba Stores","address":" 17\/1, Vishnu Vardhan Road, Bendra Nagar, Kadirenahalli","contact_no":"9886565614","city_id":1,"category_id":9,"lat":12.915196,"lng":77.561173,"start_time":"10:00:00","end_time":"20:00:00","paytm_id":279565,"created_at":"2016-12-18 11:56:23","updated_at":"2016-12-18 11:56:23"},{"id":989,"name":"Sri Banashankari Mobiles Sale & Service","address":"Jpnagar Puttanahalli","contact_no":"9611678960","city_id":1,"category_id":4,"lat":12.915271,"lng":77.561174,"start_time":"10:00:00","end_time":"20:00:00","paytm_id":276229,"created_at":"2016-12-18 11:56:23","updated_at":"2016-12-18 11:56:23"},{"id":990,"name":"After 11","address":"18\/37 13th Cross Subhash Chandra Bose Road Bsk 2nd Stage","contact_no":"9900740200","city_id":1,"category_id":8,"lat":12.913648,"lng":77.561571,"start_time":"10:00:00","end_time":"20:00:00","paytm_id":291049,"created_at":"2016-12-18 11:56:23","updated_at":"2016-12-18 11:56:23"},{"id":992,"name":"Moon Star Graphics Zone","address":"  17\/1 Subramanya Main Road Kadirenahally","contact_no":"9035989891","city_id":1,"category_id":8,"lat":12.915278,"lng":77.56122,"start_time":"10:00:00","end_time":"20:00:00","paytm_id":275517,"created_at":"2016-12-18 11:56:23","updated_at":"2016-12-18 11:56:23"},{"id":994,"name":"Mehtha Autho Spares","address":"Bsk 2nd Stage Uttarahalli Main Road","contact_no":"9341431972","city_id":1,"category_id":26,"lat":12.915299,"lng":77.561253,"start_time":"10:00:00","end_time":"20:00:00","paytm_id":276317,"created_at":"2016-12-18 11:56:23","updated_at":"2016-12-18 11:56:23"},{"id":995,"name":"Sunlight Digital Studio & Video","address":"17\/1 Rammana Building Bsk 2nd Stage","contact_no":"8151898783","city_id":1,"category_id":39,"lat":12.915811,"lng":77.561124,"start_time":"10:00:00","end_time":"20:00:00","paytm_id":280797,"created_at":"2016-12-18 11:56:23","updated_at":"2016-12-18 11:56:23"},{"id":996,"name":"Girish Stores","address":"Subramanyapura Main Road","contact_no":"9739552352","city_id":1,"category_id":9,"lat":12.915301,"lng":77.561255,"start_time":"10:00:00","end_time":"20:00:00","paytm_id":280825,"created_at":"2016-12-18 11:56:23","updated_at":"2016-12-18 11:56:23"},{"id":998,"name":"Metha Auto Spares","address":"Subramanyapura Main Road","contact_no":"9036111707","city_id":1,"category_id":26,"lat":12.915317,"lng":77.561267,"start_time":"10:00:00","end_time":"20:00:00","paytm_id":275509,"created_at":"2016-12-18 11:56:23","updated_at":"2016-12-18 11:56:23"},{"id":1002,"name":"Pooj Enterprises","address":" 1783\/2 4 Th Main,  Kumaraswamy Layout","contact_no":"9740426981","city_id":1,"category_id":25,"lat":12.905574,"lng":77.562935,"start_time":"10:00:00","end_time":"20:00:00","paytm_id":299257,"created_at":"2016-12-18 11:56:23","updated_at":"2016-12-18 11:56:23"},{"id":1003,"name":"Vinayaka Mobiles N Watches","address":" 30 6th Cross Jaraganahalli","contact_no":"9738466040","city_id":1,"category_id":36,"lat":12.89089,"lng":77.562585,"start_time":"10:00:00","end_time":"20:00:00","paytm_id":299601,"created_at":"2016-12-18 11:56:23","updated_at":"2016-12-18 11:56:23"},{"id":1004,"name":"Shakthi Car Products","address":" 272, 1st Cross R Thimmiah Road 1st Stage Padmanabhanagar   ","contact_no":"8904642267","city_id":1,"category_id":17,"lat":12.916714,"lng":77.561016,"start_time":"10:00:00","end_time":"20:00:00","paytm_id":282893,"created_at":"2016-12-18 11:56:23","updated_at":"2016-12-18 11:56:23"},{"id":1006,"name":"Vishnu Priya Fashions","address":"Manasa Theatre Main Road Kounkunte Cross","contact_no":"9019335999","city_id":1,"category_id":18,"lat":12.890878,"lng":77.562691,"start_time":"10:00:00","end_time":"20:00:00","paytm_id":289581,"created_at":"2016-12-18 11:56:23","updated_at":"2016-12-18 11:56:23"},{"id":1007,"name":"Feet Square","address":"16 Sy21\/6 Village Arcade Konakunte Cross Vasanthpura Road","contact_no":"9449106797","city_id":1,"category_id":15,"lat":12.890881,"lng":77.562708,"start_time":"10:00:00","end_time":"20:00:00","paytm_id":300469,"created_at":"2016-12-18 11:56:23","updated_at":"2016-12-18 11:56:23"},{"id":1008,"name":"Abhijith Bakery","address":"Thigalarapalya Main Road","contact_no":"9036299973","city_id":1,"category_id":12,"lat":12.903652,"lng":77.563314,"start_time":"10:00:00","end_time":"20:00:00","paytm_id":300997,"created_at":"2016-12-18 11:56:23","updated_at":"2016-12-18 11:56:23"},{"id":1009,"name":"Waseem Mobile","address":" 3,  Vasantha Pura  Main Road,  Konanakunte Cross","contact_no":"7204749326","city_id":1,"category_id":36,"lat":12.89083,"lng":77.562805,"start_time":"10:00:00","end_time":"20:00:00","paytm_id":303761,"created_at":"2016-12-18 11:56:23","updated_at":"2016-12-18 11:56:23"},{"id":1010,"name":"Kasturi Collections","address":"20\/8 Shop 3 Kenchapa Complex Kadernahalli Circle","contact_no":"8123451975","city_id":1,"category_id":18,"lat":12.91583,"lng":77.561512,"start_time":"10:00:00","end_time":"20:00:00","paytm_id":283029,"created_at":"2016-12-18 11:56:23","updated_at":"2016-12-18 11:56:23"},{"id":1011,"name":"Sri Krishna Mobiles","address":" 723 14th Main Road Opposite Police Stations Kumarswamy Layout","contact_no":"9019191125","city_id":1,"category_id":4,"lat":12.905398,"lng":77.563332,"start_time":"10:00:00","end_time":"20:00:00","paytm_id":302005,"created_at":"2016-12-18 11:56:23","updated_at":"2016-12-18 11:56:23"},{"id":1012,"name":"Ms Fashions","address":"Vasanthapura Main Road","contact_no":"9008689523","city_id":1,"category_id":52,"lat":12.890836,"lng":77.562904,"start_time":"10:00:00","end_time":"20:00:00","paytm_id":302921,"created_at":"2016-12-18 11:56:23","updated_at":"2016-12-18 11:56:23"},{"id":1016,"name":"Sms Enterprises","address":"Kanakapura Main Road Balaji Layout","contact_no":"9743607572","city_id":1,"category_id":4,"lat":12.907287,"lng":77.563223,"start_time":"10:00:00","end_time":"20:00:00","paytm_id":299509,"created_at":"2016-12-18 11:56:23","updated_at":"2016-12-18 11:56:23"},{"id":1019,"name":"Sri Sai Enterprises","address":" 6 1st Cross  9th Main 2nd Stage Bendre Nagar Hsfc Bank   ","contact_no":"9481784172","city_id":1,"category_id":4,"lat":12.913351,"lng":77.562248,"start_time":"10:00:00","end_time":"20:00:00","paytm_id":291085,"created_at":"2016-12-18 11:56:23","updated_at":"2016-12-18 11:56:23"},{"id":1021,"name":"Vinayaka Arts","address":"Vidyapeeta Circle Kattariguppe Main Road","contact_no":"7411040458","city_id":1,"category_id":14,"lat":12.907387,"lng":77.563241,"start_time":"10:00:00","end_time":"20:00:00","paytm_id":294693,"created_at":"2016-12-18 11:56:23","updated_at":"2016-12-18 11:56:23"},{"id":1022,"name":"Sri Annapurneshwari Sweets And Condiments","address":"Kanapura Main Road Vajarahalli","contact_no":"8884057145","city_id":1,"category_id":14,"lat":12.907387,"lng":77.563241,"start_time":"10:00:00","end_time":"20:00:00","paytm_id":301001,"created_at":"2016-12-18 11:56:23","updated_at":"2016-12-18 11:56:23"},{"id":1023,"name":"Sri Saligrama Condiments","address":"Kumarswamu Layout Bsk 2 Nd Stage","contact_no":"9743115594","city_id":1,"category_id":14,"lat":12.907387,"lng":77.563241,"start_time":"10:00:00","end_time":"20:00:00","paytm_id":292901,"created_at":"2016-12-18 11:56:23","updated_at":"2016-12-18 11:56:23"},{"id":1024,"name":"Sms Enterprises","address":"Kanakapura Main Road Talagattapura","contact_no":"8884167772","city_id":1,"category_id":4,"lat":12.907387,"lng":77.563241,"start_time":"10:00:00","end_time":"20:00:00","paytm_id":303721,"created_at":"2016-12-18 11:56:23","updated_at":"2016-12-18 11:56:23"},{"id":1025,"name":"Sr Enterprises","address":"Kumaraswamy Layout","contact_no":"8495072671","city_id":1,"category_id":4,"lat":12.907387,"lng":77.563241,"start_time":"10:00:00","end_time":"20:00:00","paytm_id":288701,"created_at":"2016-12-18 11:56:23","updated_at":"2016-12-18 11:56:23"},{"id":1026,"name":"S N Enterprises","address":"Kanakapura Main Road Talagattapura","contact_no":"9036593962","city_id":1,"category_id":4,"lat":12.907387,"lng":77.563241,"start_time":"10:00:00","end_time":"20:00:00","paytm_id":294765,"created_at":"2016-12-18 11:56:23","updated_at":"2016-12-18 11:56:23"},{"id":1027,"name":"Mad Plus","address":"No 5  Kadhrenahalli Kendre Nagar","contact_no":"8050696476","city_id":1,"category_id":2,"lat":12.913355,"lng":77.562258,"start_time":"10:00:00","end_time":"20:00:00","paytm_id":303681,"created_at":"2016-12-18 11:56:23","updated_at":"2016-12-18 11:56:23"},{"id":1028,"name":"Sri Ridhi Sidhi Fancy And Stationary","address":"Vidyapeeta Circle Kathariguppe Main Road","contact_no":"9036265092","city_id":1,"category_id":25,"lat":12.907273,"lng":77.563264,"start_time":"10:00:00","end_time":"20:00:00","paytm_id":289993,"created_at":"2016-12-18 11:56:23","updated_at":"2016-12-18 11:56:23"},{"id":1029,"name":"Mangala Mobile Service","address":"Bsk 1 St Stage Kathariguppe Main Road","contact_no":"9035372700","city_id":1,"category_id":4,"lat":12.907373,"lng":77.563256,"start_time":"10:00:00","end_time":"20:00:00","paytm_id":291801,"created_at":"2016-12-18 11:56:23","updated_at":"2016-12-18 11:56:23"},{"id":1030,"name":"Slv Mens Saloon","address":"Kumaraswamy Layout Uttarahalli Main Road","contact_no":"7411771262","city_id":1,"category_id":42,"lat":12.907382,"lng":77.563259,"start_time":"10:00:00","end_time":"20:00:00","paytm_id":287885,"created_at":"2016-12-18 11:56:23","updated_at":"2016-12-18 11:56:23"},{"id":1031,"name":"Rohith Fashions","address":"Talagattapura Kanakapura Main Road","contact_no":"9535942104","city_id":1,"category_id":25,"lat":12.907366,"lng":77.563263,"start_time":"10:00:00","end_time":"20:00:00","paytm_id":287949,"created_at":"2016-12-18 11:56:23","updated_at":"2016-12-18 11:56:23"},{"id":1033,"name":"Sri Narayana Mobile Service","address":"Kanakapura Main Road Thathahuni","contact_no":"7204201451","city_id":1,"category_id":4,"lat":12.907345,"lng":77.563285,"start_time":"10:00:00","end_time":"20:00:00","paytm_id":296485,"created_at":"2016-12-18 11:56:23","updated_at":"2016-12-18 11:56:23"},{"id":1034,"name":"Sangeetha Text Tiles","address":"Kanakapura Main Road Talagattapura","contact_no":"9741850885","city_id":1,"category_id":14,"lat":12.907345,"lng":77.563285,"start_time":"10:00:00","end_time":"20:00:00","paytm_id":291469,"created_at":"2016-12-18 11:56:23","updated_at":"2016-12-18 11:56:23"},{"id":1036,"name":"Sri Saligrama Condiments And Juice Centre","address":"Kumaraswamy Layout Bsk 2nd Stage","contact_no":"9739584434","city_id":1,"category_id":12,"lat":12.907396,"lng":77.563281,"start_time":"10:00:00","end_time":"20:00:00","paytm_id":303133,"created_at":"2016-12-18 11:56:23","updated_at":"2016-12-18 11:56:23"},{"id":1037,"name":"Sri Venkateshwara Rice Traders","address":" 75,  T Thimmaiah Road,  Opposite,  Sbi Atm,  BanashanK Ri 2nd Stage","contact_no":"9505588153","city_id":1,"category_id":9,"lat":12.915655,"lng":77.561763,"start_time":"10:00:00","end_time":"20:00:00","paytm_id":280785,"created_at":"2016-12-18 11:56:23","updated_at":"2016-12-18 11:56:23"},{"id":1038,"name":"Manjunatha Tailor","address":"K S Layout Near Dayananda Sagara Clg Road Down","contact_no":"9035545030","city_id":1,"category_id":61,"lat":12.907126,"lng":77.56333,"start_time":"10:00:00","end_time":"20:00:00","paytm_id":301069,"created_at":"2016-12-18 11:56:23","updated_at":"2016-12-18 11:56:23"},{"id":1039,"name":"Alfa Fashions","address":"Konanakunte Cross","contact_no":"9731388909","city_id":1,"category_id":18,"lat":12.890718,"lng":77.563071,"start_time":"10:00:00","end_time":"20:00:00","paytm_id":294949,"created_at":"2016-12-18 11:56:23","updated_at":"2016-12-18 11:56:23"},{"id":1042,"name":"Sai Smitha Pop Works","address":"Tataguni Kanakapura Main Road","contact_no":"9743571656","city_id":1,"category_id":62,"lat":12.907391,"lng":77.56333,"start_time":"10:00:00","end_time":"20:00:00","paytm_id":301621,"created_at":"2016-12-18 11:56:23","updated_at":"2016-12-18 11:56:23"},{"id":1050,"name":"Sri Lakshmi Xerox","address":"Tataguni Kanakapura Main Road","contact_no":"7204953952","city_id":1,"category_id":4,"lat":12.907329,"lng":77.5634,"start_time":"10:00:00","end_time":"20:00:00","paytm_id":300457,"created_at":"2016-12-18 11:56:23","updated_at":"2016-12-18 11:56:23"},{"id":1053,"name":"Smart Photo Studio","address":" 13 Subhaschandra Bose Road Bendre Nagar Kadirenqhalli Bsk 2nd Stage Opposite To Rr Vuva Hospital","contact_no":"9900503502","city_id":1,"category_id":39,"lat":12.91342,"lng":77.562433,"start_time":"10:00:00","end_time":"20:00:00","paytm_id":302473,"created_at":"2016-12-18 11:56:23","updated_at":"2016-12-18 11:56:23"},{"id":1064,"name":"Smart Photo Studio","address":" 13 Subhaschandra Bose Road Bendre Nagar Kadirenahali","contact_no":"8792506474","city_id":1,"category_id":39,"lat":12.913319,"lng":77.56254,"start_time":"10:00:00","end_time":"20:00:00","paytm_id":291533,"created_at":"2016-12-18 11:56:23","updated_at":"2016-12-18 11:56:23"},{"id":1068,"name":"Vehical Grafics","address":" 728,  14 Th Main Road,  Kumaraswamy Layout","contact_no":"8550835571","city_id":1,"category_id":8,"lat":12.907076,"lng":77.563653,"start_time":"10:00:00","end_time":"20:00:00","paytm_id":291461,"created_at":"2016-12-18 11:56:23","updated_at":"2016-12-18 11:56:23"},{"id":1070,"name":"My Choice","address":"Konananakunte Cross","contact_no":"9035661521","city_id":1,"category_id":18,"lat":12.890654,"lng":77.563435,"start_time":"10:00:00","end_time":"20:00:00","paytm_id":290657,"created_at":"2016-12-18 11:56:23","updated_at":"2016-12-18 11:56:23"},{"id":1072,"name":"My Choice","address":"Manasa Theatre Main Road Kounkuntte Cross","contact_no":"7019681041","city_id":1,"category_id":18,"lat":12.890602,"lng":77.563485,"start_time":"10:00:00","end_time":"20:00:00","paytm_id":297937,"created_at":"2016-12-18 11:56:23","updated_at":"2016-12-18 11:56:23"},{"id":1077,"name":"Sri Raghavenra Hot Chips","address":"1 9th  Cross K S Layout","contact_no":"8884229762","city_id":1,"category_id":12,"lat":12.907828,"lng":77.563838,"start_time":"10:00:00","end_time":"20:00:00","paytm_id":302769,"created_at":"2016-12-18 11:56:23","updated_at":"2016-12-18 11:56:23"},{"id":1078,"name":"Kaveri Bakery","address":"Subbaih Chandra Boss Main Road Minhoj Nagar Jp Nagar","contact_no":"9739353381","city_id":1,"category_id":44,"lat":12.913266,"lng":77.562943,"start_time":"10:00:00","end_time":"20:00:00","paytm_id":296689,"created_at":"2016-12-18 11:56:23","updated_at":"2016-12-18 11:56:23"},{"id":1079,"name":"Shree Sai Ram Travels","address":" 587\/A, 20Th Cross,  14th Main,  1st Stage, Kumaraswamy Layout","contact_no":"9663385548","city_id":1,"category_id":34,"lat":12.907682,"lng":77.563879,"start_time":"10:00:00","end_time":"20:00:00","paytm_id":302165,"created_at":"2016-12-18 11:56:23","updated_at":"2016-12-18 11:56:23"},{"id":1083,"name":"Marsh Mens Wear","address":"50 Feet Raod Kumaraswamy Lyt","contact_no":"9449888408","city_id":1,"category_id":18,"lat":12.909291,"lng":77.563813,"start_time":"10:00:00","end_time":"20:00:00","paytm_id":296129,"created_at":"2016-12-18 11:56:23","updated_at":"2016-12-18 11:56:23"},{"id":1085,"name":"Hysk Auto Center","address":" 1714,  50Th Main Road,  Before Water Tank,  K S Layout 2nd Stage","contact_no":"9448883351","city_id":1,"category_id":17,"lat":12.909341,"lng":77.563837,"start_time":"10:00:00","end_time":"20:00:00","paytm_id":294113,"created_at":"2016-12-18 11:56:23","updated_at":"2016-12-18 11:56:23"},{"id":1086,"name":"S.P.S Travels","address":"Teachers Colony","contact_no":"9945263314","city_id":1,"category_id":34,"lat":12.908097,"lng":77.564008,"start_time":"10:00:00","end_time":"20:00:00","paytm_id":302313,"created_at":"2016-12-18 11:56:23","updated_at":"2016-12-18 11:56:23"},{"id":1087,"name":"Suki Driving School","address":" 1750, 14th Main,  1st Stage, Kumarswamy Layout","contact_no":"7996989797","city_id":1,"category_id":8,"lat":12.90799,"lng":77.564047,"start_time":"10:00:00","end_time":"20:00:00","paytm_id":297861,"created_at":"2016-12-18 11:56:23","updated_at":"2016-12-18 11:56:23"},{"id":1091,"name":"Preetham Beauty Zoon","address":" 1525,  14th Main,  1st Stage,  Police Station Road,  Kumaraswamy Layout","contact_no":"8469001083","city_id":1,"category_id":42,"lat":12.908123,"lng":77.56406,"start_time":"10:00:00","end_time":"20:00:00","paytm_id":290581,"created_at":"2016-12-18 11:56:23","updated_at":"2016-12-18 11:56:23"},{"id":1094,"name":"Sa Footware","address":"Kounkuntte Cross","contact_no":"9902819375","city_id":1,"category_id":15,"lat":12.890346,"lng":77.563912,"start_time":"10:00:00","end_time":"20:00:00","paytm_id":288845,"created_at":"2016-12-18 11:56:23","updated_at":"2016-12-18 11:56:23"},{"id":1095,"name":"Zain Electrical Works","address":" 68 2nd Main Jhbcs Layout J P Nagar Post","contact_no":"9740782612","city_id":1,"category_id":26,"lat":12.913263,"lng":77.563265,"start_time":"10:00:00","end_time":"20:00:00","paytm_id":302829,"created_at":"2016-12-18 11:56:23","updated_at":"2016-12-18 11:56:23"},{"id":1097,"name":"Cotton Worls","address":"Kounkunte Cross K K Pura Main Road","contact_no":"9535498057","city_id":1,"category_id":18,"lat":12.890547,"lng":77.563967,"start_time":"10:00:00","end_time":"20:00:00","paytm_id":303093,"created_at":"2016-12-18 11:56:23","updated_at":"2016-12-18 11:56:23"},{"id":1099,"name":"Daily Fresh","address":"64, 2nd Cross Scb Road,  Jhsbc Layout Bsk 2nd Stage","contact_no":"9605142258","city_id":1,"category_id":5,"lat":12.913233,"lng":77.563308,"start_time":"10:00:00","end_time":"20:00:00","paytm_id":298297,"created_at":"2016-12-18 11:56:23","updated_at":"2016-12-18 11:56:23"},{"id":1101,"name":"Cotton World","address":"Konananakunte Cross","contact_no":"9611606984","city_id":1,"category_id":18,"lat":12.890554,"lng":77.563992,"start_time":"10:00:00","end_time":"20:00:00","paytm_id":301557,"created_at":"2016-12-18 11:56:23","updated_at":"2016-12-18 11:56:23"},{"id":1102,"name":"M K Rise Corner","address":" 68 2nd Cross Scb Road Jhbcs Layout Bsk 2nd Stage","contact_no":"8553735837","city_id":1,"category_id":13,"lat":12.913235,"lng":77.563344,"start_time":"10:00:00","end_time":"20:00:00","paytm_id":300877,"created_at":"2016-12-18 11:56:23","updated_at":"2016-12-18 11:56:23"},{"id":1103,"name":"Rk Photo Flash","address":"  1750 14th Main 1 Stage Kumaraswamy Layout   ","contact_no":"7829527094","city_id":1,"category_id":39,"lat":12.907954,"lng":77.564232,"start_time":"10:00:00","end_time":"20:00:00","paytm_id":291757,"created_at":"2016-12-18 11:56:23","updated_at":"2016-12-18 11:56:23"},{"id":1104,"name":"Nb","address":"65 Gnd Floor  Jhdc Layout Back 2nd Stage","contact_no":"8892082839","city_id":1,"category_id":5,"lat":12.913212,"lng":77.563376,"start_time":"10:00:00","end_time":"20:00:00","paytm_id":288497,"created_at":"2016-12-18 11:56:23","updated_at":"2016-12-18 11:56:23"},{"id":1106,"name":"Pure Export Collections","address":"Kumarswamy Layout 71st Cross  106 Bsk 3Stage","contact_no":"8553883126","city_id":1,"category_id":18,"lat":12.904591,"lng":77.564589,"start_time":"10:00:00","end_time":"20:00:00","paytm_id":293433,"created_at":"2016-12-18 11:56:23","updated_at":"2016-12-18 11:56:23"},{"id":1107,"name":"Sri Krishna Grandige Angadi","address":"Subrayamanya Pura Main Road","contact_no":"7848827775","city_id":1,"category_id":8,"lat":12.915037,"lng":77.562999,"start_time":"10:00:00","end_time":"20:00:00","paytm_id":272593,"created_at":"2016-12-18 11:56:23","updated_at":"2016-12-18 11:56:23"},{"id":1110,"name":"Pampa Electricals","address":"Konunkuntte Cross K K Pura Main Road","contact_no":"7795245484","city_id":1,"category_id":22,"lat":12.890509,"lng":77.564099,"start_time":"10:00:00","end_time":"20:00:00","paytm_id":302369,"created_at":"2016-12-18 11:56:23","updated_at":"2016-12-18 11:56:23"},{"id":1111,"name":"Rk Enterprises And Pet Shop","address":" 1338\/4 14Main Road Kumarswamy Layout","contact_no":"9880733135","city_id":1,"category_id":18,"lat":12.909149,"lng":77.564183,"start_time":"10:00:00","end_time":"20:00:00","paytm_id":288489,"created_at":"2016-12-18 11:56:23","updated_at":"2016-12-18 11:56:23"},{"id":1112,"name":"Farm Fresh","address":"Daddy'S Garden Road","contact_no":"9789269487","city_id":1,"category_id":9,"lat":12.889916,"lng":77.564047,"start_time":"10:00:00","end_time":"20:00:00","paytm_id":298629,"created_at":"2016-12-18 11:56:23","updated_at":"2016-12-18 11:56:23"},{"id":1114,"name":"Iyengar Bakey","address":"Konanakunte Cross","contact_no":"8880079507","city_id":1,"category_id":12,"lat":12.890511,"lng":77.564178,"start_time":"10:00:00","end_time":"20:00:00","paytm_id":292937,"created_at":"2016-12-18 11:56:23","updated_at":"2016-12-18 11:56:23"},{"id":1115,"name":"Renuka Digital Photos & Vidios","address":"12 Kadernahalli Bsk 2nd Stage","contact_no":"9741087858","city_id":1,"category_id":39,"lat":12.914996,"lng":77.563129,"start_time":"10:00:00","end_time":"20:00:00","paytm_id":274129,"created_at":"2016-12-18 11:56:23","updated_at":"2016-12-18 11:56:23"},{"id":1130,"name":"Krishna Helmet Store","address":" 10 Kadernahalli Bsk 2nd Stage","contact_no":"9206940087","city_id":1,"category_id":8,"lat":12.914841,"lng":77.563349,"start_time":"10:00:00","end_time":"20:00:00","paytm_id":278869,"created_at":"2016-12-18 11:56:23","updated_at":"2016-12-18 11:56:23"},{"id":1131,"name":"Mahalakshmi Fancy & Gift Gallery","address":"Kadirehanahalli","contact_no":"7899882885","city_id":1,"category_id":25,"lat":12.914943,"lng":77.563345,"start_time":"10:00:00","end_time":"20:00:00","paytm_id":273821,"created_at":"2016-12-18 11:56:23","updated_at":"2016-12-18 11:56:23"},{"id":1136,"name":"Banashankri Provisions Store","address":"1684 3 Main 6 Cross 1 St K S Lyt","contact_no":"9902926122","city_id":1,"category_id":9,"lat":12.910386,"lng":77.564351,"start_time":"10:00:00","end_time":"20:00:00","paytm_id":299865,"created_at":"2016-12-18 11:56:23","updated_at":"2016-12-18 11:56:23"}]